City_ID,City,Country,Lat,Lng,Max Temp,Humidity,Cloudiness,Wind Speed,Current Description
0,Jamestown,US,42.097,-79.2353,42.39,51,1,8.99,clear sky
1,Kayasula,RU,44.325,45.0,38.62,77,96,14.23,overcast clouds
2,North Bend,US,43.4065,-124.2243,49.86,98,99,16.24,overcast clouds
3,Mount Gambier,AU,-37.8333,140.7667,69.71,64,31,13.8,scattered clouds
4,Arlit,NE,18.7369,7.3853,69.58,8,87,7.18,overcast clouds
5,Avarua,CK,-21.2078,-159.775,73.45,94,75,11.5,heavy intensity rain
6,Dikson,RU,73.5069,80.5464,-16.83,95,96,15.1,overcast clouds
7,Ushuaia,AR,-54.8,-68.3,46.06,49,75,26.46,broken clouds
8,Ayabaca,PE,-4.6398,-79.7149,51.04,89,99,4.83,light rain
9,Kimbe,PG,-5.5502,150.1429,78.22,92,100,1.3,overcast clouds
10,Asau,RO,46.4333,26.4,38.75,85,100,3.36,overcast clouds
11,Ribeira Grande,PT,38.5167,-28.7,58.69,53,100,18.77,overcast clouds
12,Alamosa,US,37.4695,-105.87,44.58,18,1,6.91,clear sky
13,Hermanus,ZA,-34.4187,19.2345,64.9,88,62,7.61,broken clouds
14,Klaksvik,FO,62.2266,-6.589,41.92,73,100,17.56,overcast clouds
15,Valparaiso,CL,-33.0393,-71.6273,69.44,52,0,16.11,clear sky
16,Mataura,NZ,-46.1927,168.8643,63.48,42,59,3.27,broken clouds
17,Oranjestad,AW,12.524,-70.027,82.35,83,40,3.0,scattered clouds
18,Gamba,GA,-2.65,10.0,75.47,93,99,2.66,overcast clouds
19,Hobart,AU,-42.8794,147.3294,63.27,62,20,4.0,few clouds
20,Quatre Cocos,MU,-20.2078,57.7625,75.31,72,89,12.17,overcast clouds
21,Tecolutla,MX,20.4833,-97.0167,70.29,58,40,7.45,scattered clouds
22,Vaini,TO,-21.2,-175.2,82.56,83,40,13.8,light rain
23,Tonj,SS,7.2737,28.6822,79.18,29,61,3.42,broken clouds
24,Bluff,NZ,-46.6,168.3333,63.81,71,22,7.27,few clouds
25,Saint-Philippe,RE,-21.3585,55.7679,76.59,74,80,11.32,broken clouds
26,Punta Arenas,CL,-53.15,-70.9167,50.11,34,0,23.02,clear sky
27,Severo-Kurilsk,RU,50.6789,156.125,33.19,87,80,12.46,broken clouds
28,Mehamn,NO,71.0357,27.8492,31.95,86,75,16.11,light snow
29,Yellowknife,CA,62.456,-114.3525,9.12,85,90,8.05,light snow
30,Kaitangata,NZ,-46.2817,169.8464,59.94,65,62,5.19,broken clouds
31,Georgetown,MY,5.4112,100.3354,79.9,82,20,0.0,few clouds
32,Rikitea,PF,-23.1203,-134.9692,77.65,76,87,8.63,light rain
33,Kalmar,SE,56.6616,16.3616,32.97,98,90,2.3,overcast clouds
34,Ilulissat,GL,69.2167,-51.1,19.42,68,90,9.22,overcast clouds
35,Guerrero Negro,MX,27.9769,-114.0611,66.34,48,41,10.04,scattered clouds
36,Kyrnasivka,UA,48.5955,28.979,36.09,88,100,7.23,overcast clouds
37,Longyearbyen,SJ,78.2186,15.6401,31.84,74,75,18.41,broken clouds
38,Berezovyy,RU,51.6667,135.7,12.13,96,100,3.13,overcast clouds
39,Noumea,NC,-22.2763,166.4572,84.18,80,100,2.48,light rain
40,Broken Hill,AU,-31.95,141.4333,83.91,15,5,12.66,clear sky
41,Yerofey Pavlovich,RU,53.9667,121.9667,-2.31,98,100,0.2,overcast clouds
42,Arraial Do Cabo,BR,-22.9661,-42.0278,76.69,89,86,22.39,light rain
43,Albany,US,42.6001,-73.9662,40.8,44,0,9.08,clear sky
44,Bengkulu,ID,-3.8004,102.2655,74.77,88,100,3.8,overcast clouds
45,Beshpagir,RU,45.0217,42.3808,31.42,85,98,19.73,overcast clouds
46,Lebu,CL,-37.6167,-73.65,56.37,67,4,8.95,clear sky
47,Cape Town,ZA,-33.9258,18.4232,66.61,79,20,1.99,few clouds
48,Eirunepe,BR,-6.6603,-69.8736,76.8,92,81,3.0,broken clouds
49,New Norfolk,AU,-42.7826,147.0587,63.91,52,11,3.0,few clouds
50,Port Lincoln,AU,-34.7333,135.8667,62.47,64,88,14.36,overcast clouds
51,Pangnirtung,CA,66.1451,-65.7125,-4.63,70,56,7.54,broken clouds
52,Mar Del Plata,AR,-38.0023,-57.5575,73.42,84,75,1.99,broken clouds
53,Cherskiy,RU,68.75,161.3,-43.15,100,50,1.59,scattered clouds
54,Barrow,US,71.2906,-156.7887,-12.98,77,1,13.8,clear sky
55,Mahebourg,MU,-20.4081,57.7,75.49,88,75,17.27,light intensity shower rain
56,Airai,TL,-8.9266,125.4092,66.88,78,100,1.05,overcast clouds
57,Aklavik,CA,68.2191,-135.0107,-3.17,90,100,21.81,overcast clouds
58,Batagay-Alyta,RU,67.8006,130.4114,-33.18,99,94,4.18,overcast clouds
59,Coquimbo,CL,-29.9533,-71.3436,67.73,59,0,12.66,clear sky
60,Coahuayana,MX,18.7333,-103.6833,90.88,67,29,6.02,scattered clouds
61,Dunedin,NZ,-45.8742,170.5036,61.54,62,62,5.82,broken clouds
62,Port Alfred,ZA,-33.5906,26.891,71.02,96,100,14.23,overcast clouds
63,Catamarca,AR,-28.4696,-65.7852,83.59,55,29,8.01,scattered clouds
64,Hilo,US,19.7297,-155.09,79.11,58,75,5.75,broken clouds
65,Calgary,CA,51.0501,-114.0853,31.28,64,20,1.99,light snow
66,Thompson,CA,55.7435,-97.8558,3.36,78,90,0.0,light snow
67,Moron,AR,-34.6534,-58.6198,78.69,72,84,5.44,broken clouds
68,Sisimiut,GL,66.9395,-53.6735,15.84,86,60,10.0,broken clouds
69,Tiksi,RU,71.6872,128.8694,-18.94,100,100,2.89,overcast clouds
70,San Policarpo,PH,12.1791,125.5072,79.77,86,100,17.69,overcast clouds
71,Avera,US,33.194,-82.5271,58.51,48,0,6.51,clear sky
72,Nantucket,US,41.2835,-70.0995,43.97,54,1,12.66,clear sky
73,Dalby,AU,-27.1833,151.2667,72.3,56,3,7.36,clear sky
74,Vilyuysk,RU,63.7553,121.6247,-19.46,97,100,6.51,overcast clouds
75,West Wendover,US,40.7391,-114.0733,36.61,48,1,4.61,clear sky
76,Port Elizabeth,ZA,-33.918,25.5701,71.1,88,90,4.61,overcast clouds
77,Taoudenni,ML,22.6783,-3.9836,67.87,17,57,14.14,broken clouds
78,Port Hedland,AU,-20.3167,118.5667,84.25,79,40,10.36,scattered clouds
79,Hirara,JP,24.8,125.2833,68.27,83,75,19.57,broken clouds
80,Chokurdakh,RU,70.6333,147.9167,-38.67,97,98,2.33,overcast clouds
81,Busselton,AU,-33.65,115.3333,51.08,60,100,8.81,overcast clouds
82,Qaanaaq,GL,77.484,-69.3632,-3.71,72,79,3.78,broken clouds
83,Alice Springs,AU,-23.7,133.8833,80.15,28,26,10.36,scattered clouds
84,Moba,CN,33.2288,105.0179,27.39,90,93,3.87,overcast clouds
85,Tuktoyaktuk,CA,69.4541,-133.0374,-5.8,77,90,18.41,light snow
86,Tieling,CN,42.2931,123.8414,17.69,47,0,7.65,clear sky
87,Yanam,IN,16.7333,82.2167,74.1,81,70,8.25,light rain
88,Manzhouli,CN,49.6,117.4333,4.75,90,98,4.38,overcast clouds
89,Antofagasta,CL,-23.65,-70.4,65.48,76,41,6.04,scattered clouds
90,Talcahuano,CL,-36.7167,-73.1167,60.48,59,0,18.41,clear sky
91,Palora,EC,-1.7,-77.9333,80.58,97,94,1.57,light rain
92,Victor Harbor,AU,-35.5667,138.6167,77.2,76,59,1.99,broken clouds
93,Butaritari,KI,3.0707,172.7902,82.62,71,74,16.37,broken clouds
94,Upernavik,GL,72.7868,-56.1549,6.24,92,100,10.6,overcast clouds
95,Sistranda,NO,63.7256,8.834,40.89,77,100,10.45,light rain
96,Doha,QA,25.2867,51.5333,66.18,72,0,9.22,clear sky
97,Lasa,IT,46.6166,10.7002,27.63,93,60,6.73,broken clouds
98,Santa Lucia,ES,27.9117,-15.5407,56.52,75,20,11.5,few clouds
99,Kapaa,US,22.0752,-159.319,80.92,72,75,3.0,broken clouds
100,Cabo San Lucas,MX,22.8909,-109.9124,79.52,66,20,4.61,few clouds
101,Kuusamo,FI,65.9667,29.1833,23.04,93,90,1.14,light shower snow
102,Broome,US,42.2506,-75.833,40.6,56,1,1.99,clear sky
103,Ituporanga,BR,-27.4144,-49.6025,68.68,96,67,2.04,broken clouds
104,San Cristobal,VE,7.7669,-72.225,75.38,82,70,4.0,broken clouds
105,Huarmey,PE,-10.0681,-78.1522,70.47,78,82,8.5,broken clouds
106,Chuy,UY,-33.6971,-53.4616,68.59,76,0,13.0,clear sky
107,Norrtalje,SE,59.758,18.705,33.08,95,88,3.87,overcast clouds
108,Balykshi,KZ,47.0667,51.8667,17.6,79,0,15.66,clear sky
109,Aragarcas,BR,-15.8975,-52.2508,74.75,93,100,1.83,overcast clouds
110,Puerto Escondido,MX,15.85,-97.0667,82.87,70,3,5.12,clear sky
111,Luderitz,NA,-26.6481,15.1594,61.63,83,2,10.78,clear sky
112,Lodingen,NO,68.414,15.9951,33.06,86,99,3.24,light snow
113,Husavik,IS,66.0449,-17.3389,40.91,79,95,13.69,overcast clouds
114,Kodiak,US,57.79,-152.4072,14.29,57,1,34.52,clear sky
115,Bredasdorp,ZA,-34.5322,20.0403,60.28,86,100,3.74,overcast clouds
116,Lake Charles,US,30.2131,-93.2044,62.58,38,1,5.75,clear sky
117,Khatanga,RU,71.9667,102.5,-51.12,99,80,3.85,broken clouds
118,Nikolskoye,RU,59.7035,30.7861,24.4,99,100,3.29,light snow
119,Marzuq,YE,14.4,46.4667,55.98,45,0,4.74,clear sky
120,Adrar,MR,20.5022,-10.0711,67.35,16,43,10.71,scattered clouds
121,Kruisfontein,ZA,-34.0033,24.7314,68.88,94,100,8.72,overcast clouds
122,Wilmington,US,34.2257,-77.9447,53.51,56,1,6.91,clear sky
123,Kupang,ID,-10.1667,123.5833,79.38,100,20,1.14,few clouds
124,Castro,BR,-24.7911,-50.0119,71.85,49,92,4.38,overcast clouds
125,Atar,MR,20.5169,-13.0499,70.83,16,82,8.68,broken clouds
126,Naze,JP,28.3667,129.4833,59.92,69,81,18.23,broken clouds
127,Torbay,CA,47.6666,-52.7314,50.77,94,90,33.38,light intensity drizzle
128,Shingu,JP,33.7333,135.9833,47.59,69,5,6.06,clear sky
129,Chabahar,IR,25.2919,60.643,70.84,53,5,3.89,clear sky
130,Sitka,US,57.0531,-135.33,35.49,69,90,8.05,overcast clouds
131,Fairview,US,40.8126,-73.999,46.42,44,1,0.0,clear sky
132,Makaryev,RU,57.8797,43.8069,13.73,93,96,6.33,overcast clouds
133,San Quintin,MX,30.4833,-115.95,62.2,60,2,10.18,clear sky
134,Albox,ES,37.3886,-2.1495,53.65,92,3,1.5,clear sky
135,Saldanha,ZA,-33.0117,17.9442,62.65,90,100,11.86,overcast clouds
136,Kavaratti,IN,10.5669,72.642,81.09,73,91,2.98,overcast clouds
137,Samarai,PG,-10.6167,150.6667,83.59,75,100,11.1,overcast clouds
138,Vitim,RU,59.4511,112.5578,-5.6,97,100,5.37,overcast clouds
139,San Juan Ixcoy,GT,15.5997,-91.4453,63.45,87,55,4.79,broken clouds
140,Puerto Ayora,EC,-0.7393,-90.3518,75.16,92,99,7.74,overcast clouds
141,Tambacounda,SN,13.7539,-13.7586,80.65,26,0,0.0,clear sky
142,Poum,NC,-20.2333,164.0167,77.67,91,100,14.36,heavy intensity rain
143,Kota Kinabalu,MY,5.9749,116.0724,76.98,94,20,4.61,few clouds
144,Ribeira Brava,PT,32.65,-17.0667,64.71,79,48,1.74,scattered clouds
145,Deputatskiy,RU,69.3,139.9,-33.41,100,97,1.32,overcast clouds
146,Shimoda,JP,34.6667,138.95,53.1,61,0,19.84,clear sky
147,Sokolo,ML,14.7328,-6.1219,78.93,11,66,7.78,broken clouds
148,Tasiilaq,GL,65.6145,-37.6368,41.16,80,100,16.96,light rain
149,Lompoc,US,34.6391,-120.4579,65.08,57,1,14.97,clear sky
150,Lavrentiya,RU,65.5833,-171.0,-14.46,88,16,3.27,few clouds
151,Ancud,CL,-41.8697,-73.8203,58.42,69,38,9.35,scattered clouds
152,Pisco,PE,-13.7,-76.2167,69.85,83,20,18.41,few clouds
153,Tezu,IN,27.9167,96.1667,58.15,53,29,3.71,scattered clouds
154,Norman Wells,CA,65.282,-126.8329,-2.16,71,75,12.66,light snow
155,Tilichiki,RU,60.4667,166.1,-7.87,81,100,17.67,overcast clouds
156,Cidreira,BR,-30.1811,-50.2056,71.49,87,1,13.94,clear sky
157,Bandipur,NP,27.9333,84.4167,43.29,70,2,2.44,clear sky
158,San Andres,CO,12.5847,-81.7006,82.42,78,75,8.05,broken clouds
159,Port Blair,IN,11.6667,92.75,79.11,73,66,12.84,broken clouds
160,Batagay,RU,67.6333,134.6333,-42.84,100,93,1.28,overcast clouds
161,Abengourou,CI,6.7297,-3.4964,77.04,82,78,3.76,broken clouds
162,Minot,US,48.2325,-101.2963,43.02,56,40,13.8,scattered clouds
163,Brae,GB,60.3964,-1.353,48.11,82,100,23.71,overcast clouds
164,Isiro,CD,2.7739,27.616,66.63,56,99,1.61,overcast clouds
165,Saint-Georges,GD,12.0564,-61.7485,76.68,88,75,9.22,broken clouds
166,Kidal,ML,18.4411,1.4078,72.82,11,95,7.81,overcast clouds
167,Eydhafushi,MV,5.1033,73.0708,81.84,77,99,14.63,overcast clouds
168,Quincy,US,42.2529,-71.0023,43.25,47,1,5.01,clear sky
169,Saskylakh,RU,71.9167,114.0833,-44.9,100,70,3.33,broken clouds
170,Juneau,US,58.3019,-134.4197,26.65,89,90,0.0,light snow
171,Waounde,SN,15.2637,-12.8682,78.84,10,82,8.1,broken clouds
172,Ust-Nera,RU,64.5667,143.2,-40.72,100,85,0.47,overcast clouds
173,Mwinilunga,ZM,-11.7358,24.4293,64.9,84,95,3.15,overcast clouds
174,Saint George,US,37.1041,-113.5841,61.27,37,1,3.0,clear sky
175,Guia Lopes Da Laguna,BR,-21.4578,-56.1142,70.54,96,95,6.49,overcast clouds
176,Churapcha,RU,62.0025,132.4325,-28.84,99,100,3.47,overcast clouds
177,Alofi,NU,-19.0595,-169.9187,82.29,69,7,11.5,clear sky
178,Akdagmadeni,TR,39.6603,35.8836,39.2,52,6,5.21,clear sky
179,Sturgeon Falls,CA,46.3646,-79.9326,39.09,73,64,18.37,broken clouds
180,Ila,NO,63.4305,10.3705,40.95,84,85,3.18,overcast clouds
181,Bo Rai,TH,12.5728,102.5371,68.14,88,21,7.49,few clouds
182,Nuuk,GL,64.1835,-51.7216,20.01,79,20,17.27,few clouds
183,Centralia,US,46.7162,-122.9543,40.98,82,100,1.01,overcast clouds
184,Porbandar,IN,21.6422,69.6093,71.94,51,0,9.62,clear sky
185,Maine-Soroa,NE,13.2114,12.0241,71.11,18,100,8.7,overcast clouds
186,Novikovo,RU,51.1537,37.8879,30.45,57,100,11.54,overcast clouds
187,Manali,IN,13.1667,80.2667,80.08,89,48,10.13,scattered clouds
188,Salalah,OM,17.0151,54.0924,73.49,38,0,9.22,clear sky
189,Vestmannaeyjar,IS,63.4427,-20.2734,43.84,70,99,20.62,overcast clouds
190,Aksay,RU,47.26,39.87,30.58,64,100,16.75,overcast clouds
191,Khatima,IN,28.9167,79.9667,53.6,55,73,3.31,broken clouds
192,Labuhan,ID,-6.8844,112.2051,78.58,86,95,9.13,overcast clouds
193,Koumac,NC,-20.5667,164.2833,76.42,91,100,6.51,moderate rain
194,Cape Coast,GH,5.1053,-1.2466,80.73,85,94,6.96,overcast clouds
195,Saint-Leu,RE,-21.15,55.2833,76.06,74,68,6.89,broken clouds
196,Terrace,CA,54.5163,-128.6035,27.43,100,75,13.8,broken clouds
197,Necochea,AR,-38.5473,-58.7368,68.04,61,85,7.54,overcast clouds
198,Richards Bay,ZA,-28.783,32.0377,75.0,70,100,7.61,overcast clouds
199,Baracoa,CU,20.3467,-74.4958,77.29,83,20,10.56,few clouds
200,Sao Jose Da Coroa Grande,BR,-8.8978,-35.1478,79.14,79,22,11.12,few clouds
201,Nanortalik,GL,60.1432,-45.2371,21.69,78,27,4.99,scattered clouds
202,Muyezerskiy,RU,63.9333,31.65,19.2,97,100,4.21,light snow
203,San Patricio,US,28.017,-97.5169,68.09,35,0,8.25,clear sky
204,Manglaur,IN,29.8,77.8667,51.53,54,41,3.11,scattered clouds
205,Kahului,US,20.8947,-156.47,80.62,76,40,20.71,scattered clouds
206,Provideniya,RU,64.3833,-173.3,-8.64,64,0,2.24,clear sky
207,Vila Franca Do Campo,PT,37.7167,-25.4333,56.19,54,99,17.09,overcast clouds
208,Gubden,RU,42.5681,47.5658,37.76,84,37,6.91,scattered clouds
209,Bom Jesus,BR,-9.0744,-44.3586,77.23,78,99,2.64,overcast clouds
210,Victoria,HK,22.2855,114.1577,65.32,70,53,1.01,broken clouds
211,Honiara,SB,-9.4333,159.95,83.82,81,100,6.67,overcast clouds
212,Mandera,KE,3.9366,41.867,84.97,44,95,16.44,overcast clouds
213,Hobyo,SO,5.3505,48.5268,78.21,80,51,21.12,broken clouds
214,Terra Nova,BR,-12.3667,-40.6667,71.01,76,99,3.42,overcast clouds
215,Floresta,BR,-8.6011,-38.5686,88.2,30,85,17.74,overcast clouds
216,La Crosse,US,43.8014,-91.2396,39.76,63,1,9.22,clear sky
217,Nuevo Progreso,MX,23.1667,-97.95,72.59,49,68,1.01,broken clouds
218,Buenos Aires,AR,-34.6132,-58.3772,78.69,72,75,6.91,broken clouds
219,Fairbanks,US,64.8378,-147.7164,-7.78,69,1,3.44,light snow
220,Kochki,RU,54.3358,80.4806,3.81,96,99,7.67,overcast clouds
221,Camacha,PT,33.0833,-16.3333,60.53,88,40,2.3,scattered clouds
222,Taxisco,GT,14.0708,-90.4631,85.05,70,68,5.35,broken clouds
223,Clonakilty,IE,51.6231,-8.8706,43.81,72,89,10.2,overcast clouds
224,Arroyo,ES,41.6096,-4.7969,49.19,87,90,3.44,fog
225,Faanui,PF,-16.4833,-151.75,80.96,72,42,10.0,light rain
226,Sabang,ID,5.8933,95.3214,81.95,71,3,19.22,clear sky
227,Santa Cruz Do Capibaribe,BR,-7.9575,-36.2047,75.34,73,22,12.66,few clouds
228,Constitucion,CL,-35.3333,-72.4167,57.96,62,1,18.7,clear sky
229,Aswan,EG,24.0934,32.907,78.1,44,0,17.27,clear sky
230,Buraydah,SA,26.326,43.975,50.45,32,73,5.53,broken clouds
231,Talnakh,RU,69.4865,88.3972,-25.91,83,79,1.3,broken clouds
232,Todos Santos,MX,23.45,-110.2167,79.02,67,51,5.21,broken clouds
233,Vardo,NO,70.3705,31.1107,30.4,84,89,26.51,overcast clouds
234,Svetlyy,RU,54.675,20.1347,30.25,95,100,8.57,overcast clouds
235,Cabedelo,BR,-6.9811,-34.8339,81.27,77,12,12.91,few clouds
236,Bambous Virieux,MU,-20.3428,57.7575,75.45,88,75,17.27,light intensity shower rain
237,Waingapu,ID,-9.6567,120.2641,81.48,78,97,1.25,overcast clouds
238,Carnarvon,AU,-24.8667,113.6333,68.07,73,3,14.97,clear sky
239,Eureka,US,40.8021,-124.1637,53.92,91,100,1.99,overcast clouds
240,Tergnier,FR,49.6561,3.3011,49.75,95,87,6.29,overcast clouds
241,Pemba,MZ,-12.974,40.5178,79.68,75,68,6.82,broken clouds
242,White Oak,US,39.2131,-84.5994,44.55,51,1,1.01,clear sky
243,Novoplatnirovskaya,RU,46.1065,39.4191,39.0,75,100,17.22,overcast clouds
244,Mombasa,KE,-4.0547,39.6636,76.46,86,6,4.03,moderate rain
245,Atuona,PF,-9.8,-139.0333,79.11,78,15,18.97,few clouds
246,Mayo,US,38.8876,-76.5119,48.15,47,1,1.01,clear sky
247,Bathsheba,BB,13.2167,-59.5167,81.21,83,75,18.41,broken clouds
248,Chapais,CA,49.7834,-74.8492,26.38,95,100,11.07,light snow
249,Ocampo,MX,21.65,-101.5,71.96,28,60,2.33,broken clouds
250,Sompeta,IN,18.9333,84.6,69.93,84,17,5.97,few clouds
251,Plettenberg Bay,ZA,-34.0527,23.3716,65.5,92,93,1.95,overcast clouds
252,Mitsamiouli,KM,-11.3847,43.2844,79.92,76,92,9.98,overcast clouds
253,Eidsvag,NO,62.7767,8.0668,37.45,77,98,9.13,overcast clouds
254,La Primavera,CO,5.4906,-70.4092,83.39,53,62,6.38,broken clouds
255,Hokitika,NZ,-42.7167,170.9667,59.34,90,100,3.49,overcast clouds
256,Ostrovnoy,RU,68.0531,39.5131,30.29,91,100,15.46,overcast clouds
257,Ulaanbaatar,MN,47.9077,106.8832,6.28,74,8,3.27,clear sky
258,Vargashi,RU,55.3556,65.8467,8.91,89,12,8.43,few clouds
259,Barreirinhas,BR,-2.7469,-42.8264,81.01,78,33,11.79,scattered clouds
260,Sungaipenuh,ID,-2.0833,101.3833,64.09,96,96,2.8,overcast clouds
261,Margate,GB,51.3813,1.3862,53.31,82,98,1.01,overcast clouds
262,Dois Vizinhos,BR,-25.7336,-53.0572,74.93,51,100,3.27,overcast clouds
263,Ponnani,IN,10.767,75.9252,74.52,82,29,8.55,scattered clouds
264,Leca Da Palmeira,PT,41.191,-8.7003,54.19,85,0,16.11,clear sky
265,Nome,US,64.5011,-165.4064,-12.93,64,1,6.91,clear sky
266,Klyuchi,RU,52.2667,79.1667,1.0,95,62,6.49,broken clouds
267,Himi,JP,36.85,136.9833,40.19,79,98,7.36,light rain
268,Gueret,FR,46.1667,1.8667,39.83,97,93,2.98,overcast clouds
269,Bijie,CN,27.3125,105.2942,38.62,94,100,3.06,overcast clouds
270,Lagoa,PT,39.05,-27.9833,57.74,53,100,22.57,overcast clouds
271,Marsh Harbour,BS,26.5412,-77.0636,76.55,77,4,11.23,clear sky
272,Tuatapere,NZ,-46.1333,167.6833,63.82,54,54,4.74,broken clouds
273,Sioux Lookout,CA,50.1001,-91.917,34.18,74,40,4.61,scattered clouds
274,Nebbi,UG,2.4783,31.0889,70.02,39,90,5.23,overcast clouds
275,Matara,LK,5.9485,80.5353,76.42,84,98,7.31,overcast clouds
276,Bethel,US,41.3712,-73.414,43.57,45,1,3.44,clear sky
277,Aberfeldy,GB,56.62,-3.8645,52.14,92,100,19.13,light rain
278,Port Hardy,CA,50.6996,-127.4199,37.4,100,75,3.44,light rain
279,Turan,VN,16.0678,108.2208,73.38,78,75,5.75,broken clouds
280,Wembley,AU,-31.9333,115.8,62.06,60,0,25.32,clear sky
281,Evensk,RU,61.95,159.2333,10.45,52,100,21.77,overcast clouds
282,Fez,MA,34.0372,-4.9998,50.11,76,0,3.44,clear sky
283,Shieli,KZ,44.1667,66.75,37.42,96,100,6.96,overcast clouds
284,De-Kastri,RU,51.4667,140.7833,19.98,89,97,12.24,light snow
285,Olavarria,AR,-36.8927,-60.3225,67.93,74,49,5.53,scattered clouds
286,Havoysund,NO,70.9963,24.6622,32.88,98,100,10.07,light snow
287,Hithadhoo,MV,-0.6,73.0833,80.83,79,100,11.1,overcast clouds
288,Hofn,IS,64.2539,-15.2082,38.86,90,100,2.3,overcast clouds
289,Port-Cartier,CA,50.0334,-66.8654,28.74,68,65,20.74,broken clouds
290,Vila Velha,BR,-20.3297,-40.2925,80.55,87,0,8.99,clear sky
291,Araouane,ML,18.9048,-3.5265,71.06,9,32,9.13,scattered clouds
292,Tuy Hoa,VN,13.0833,109.3,72.05,90,94,15.57,overcast clouds
293,Kalmunai,LK,7.4167,81.8167,77.04,89,100,6.93,overcast clouds
294,Datong,CN,40.0936,113.2914,19.83,39,0,5.32,clear sky
295,Hauterive,FR,46.0901,3.4459,43.02,92,96,2.68,overcast clouds
296,Vostok,RU,46.4856,135.8833,1.53,96,100,8.01,light snow
297,Yerbogachen,RU,61.2767,108.0108,-41.08,99,37,3.74,scattered clouds
298,Antalaha,MG,-14.9003,50.2788,72.63,90,93,6.2,light rain
299,Gondanglegi,ID,-7.7479,112.0132,76.44,90,86,6.49,overcast clouds
300,Caravelas,BR,-17.7125,-39.2481,76.62,87,51,9.08,broken clouds
301,Nhulunbuy,AU,-12.2333,136.7667,86.61,66,78,3.44,broken clouds
302,Kamenka,RU,51.3223,42.7678,17.74,66,55,12.08,broken clouds
303,Balagunan,PH,7.4922,125.5211,75.96,89,100,3.27,overcast clouds
304,Kant,IN,27.8,79.8,55.56,54,3,2.98,clear sky
305,Songjianghe,CN,42.1859,127.479,4.08,79,3,6.44,clear sky
306,Tuxtla Chico,MX,14.95,-92.1667,84.25,85,10,3.27,clear sky
307,Bundaberg,AU,-24.85,152.35,79.09,65,75,14.97,broken clouds
308,Petropavlovsk-Kamchatskiy,RU,53.0452,158.6483,27.19,74,75,4.47,broken clouds
309,Cayenne,GF,4.9333,-52.3333,77.09,92,75,5.01,light rain
310,Charters Towers,AU,-20.1,146.2667,83.55,50,35,14.27,scattered clouds
311,Conceicao Do Araguaia,BR,-8.2578,-49.2647,76.41,91,100,1.66,overcast clouds
312,Sturgis,US,41.7992,-85.4192,42.84,34,1,9.22,clear sky
313,Goundam,ML,16.4145,-3.6708,76.69,12,97,7.9,overcast clouds
314,Binabalian,PH,16.4202,119.9279,79.29,75,80,11.5,broken clouds
315,Surt,LY,31.2089,16.5887,60.73,48,71,14.14,broken clouds
316,Daloa,CI,6.8774,-6.4502,75.22,65,7,3.62,clear sky
317,Katsuura,JP,35.1333,140.3,51.91,62,80,14.97,broken clouds
318,Karachi,PK,24.9056,67.0822,57.02,51,71,6.91,smoke
319,Amuntai,ID,-2.4177,115.2494,74.64,98,99,0.89,overcast clouds
320,East London,ZA,-33.0153,27.9116,71.85,95,100,7.87,light rain
321,Uruguaiana,BR,-29.7547,-57.0883,82.33,57,0,2.3,clear sky
322,Lata,PT,40.1629,-8.3327,57.61,80,12,4.34,few clouds
323,Suruc,TR,36.9761,38.425,46.6,48,100,4.03,overcast clouds
324,Akdepe,TM,42.0551,59.3788,32.09,83,74,10.71,broken clouds
325,Salekhard,RU,66.53,66.6019,-13.86,100,40,0.65,scattered clouds
326,Male,MV,4.1748,73.5089,80.55,89,75,8.05,broken clouds
327,Grindavik,IS,63.8424,-22.4338,41.47,87,75,17.27,light rain
328,Rocha,UY,-34.4833,-54.3333,70.05,74,66,8.19,broken clouds
329,Iralaya,HN,15.0,-83.2333,80.69,85,2,9.91,clear sky
330,Havre-Saint-Pierre,CA,50.2334,-63.5986,33.8,55,75,42.57,broken clouds
331,Hovd,MN,48.0056,91.6419,7.63,59,93,4.88,overcast clouds
332,Yenagoa,NG,4.9247,6.2642,80.69,82,74,5.41,broken clouds
333,Tooele,US,40.5308,-112.2983,45.25,65,1,0.0,clear sky
334,Cairns,AU,-16.9167,145.7667,92.1,65,40,8.05,scattered clouds
335,Burnie,AU,-41.0667,145.9167,62.92,64,71,11.1,broken clouds
336,Cockburn Town,TC,21.4612,-71.1419,78.76,69,40,9.22,scattered clouds
337,Tual,ID,-5.6667,132.75,84.0,74,97,10.83,overcast clouds
338,Balkhash,KZ,46.844,74.9804,28.76,96,100,4.25,light snow
339,Clyde River,CA,70.4692,-68.5914,-1.97,92,90,10.36,light snow
340,Muisne,EC,0.6,-80.0333,75.31,93,100,7.96,light rain
341,Bozdar,PK,27.1828,68.636,51.87,21,89,5.08,overcast clouds
342,Sao Filipe,CV,14.8961,-24.4956,74.89,72,91,5.7,overcast clouds
343,Andenes,NO,69.3143,16.1194,33.78,93,90,11.5,light intensity drizzle
344,Nelson Bay,AU,-32.7167,152.15,71.01,70,68,4.0,broken clouds
345,Mahibadhoo,MV,3.7833,72.9667,80.44,81,95,9.98,overcast clouds
346,Zhaotong,CN,27.3167,103.7167,37.08,90,97,2.37,overcast clouds
347,El Campo,US,29.1966,-96.2697,62.89,36,1,0.0,clear sky
348,Santa Maria,BR,-29.6842,-53.8069,87.1,40,40,4.61,scattered clouds
349,Los Llanos De Aridane,ES,28.6585,-17.9182,62.35,74,20,7.0,few clouds
350,Steamboat Springs,US,40.485,-106.8317,43.47,68,90,0.0,overcast clouds
351,Mama,RU,58.3106,112.8986,-0.22,99,100,4.12,overcast clouds
352,Beringovskiy,RU,63.05,179.3167,-17.03,99,100,13.38,overcast clouds
353,Zhangye,CN,38.9342,100.4517,18.97,45,0,1.81,clear sky
354,Itarema,BR,-2.9248,-39.9167,80.64,79,38,15.41,scattered clouds
355,Moussoro,TD,13.6408,16.4901,73.27,18,82,10.65,broken clouds
356,Moose Factory,CA,51.2585,-80.6094,23.0,93,90,0.0,light snow
357,Manacapuru,BR,-3.2997,-60.6206,75.78,91,91,5.21,overcast clouds
358,Inhambane,MZ,-23.865,35.3833,78.31,95,10,7.72,clear sky
359,Hambantota,LK,6.1241,81.1185,78.08,81,100,14.29,overcast clouds
360,Malkara,TR,40.89,26.9011,48.52,89,99,14.83,light rain
361,Black River,JM,18.0264,-77.8487,82.4,77,32,4.68,scattered clouds
362,Coihaique,CL,-45.5752,-72.0662,55.35,58,75,5.75,broken clouds
363,Camocim,BR,-2.9022,-40.8411,81.59,74,41,17.74,scattered clouds
364,Boli,CN,45.7667,130.5167,5.95,73,6,14.9,clear sky
365,Dudinka,RU,69.4058,86.1778,-30.46,93,69,6.46,broken clouds
366,Narsaq,GL,60.9167,-46.05,8.11,79,3,3.15,clear sky
367,Mbaiki,CF,3.8678,17.9892,78.89,43,99,2.04,overcast clouds
368,Paamiut,GL,61.994,-49.6678,10.85,78,1,6.49,clear sky
369,Kenai,US,60.5544,-151.2583,-3.91,77,1,0.0,haze
370,Islamkot,PK,24.6997,70.177,61.99,24,63,6.91,broken clouds
371,Westport,US,41.1415,-73.3579,46.22,46,1,4.0,clear sky
372,Jerome,US,42.7241,-114.5186,44.04,64,100,5.01,overcast clouds
373,Maragogi,BR,-9.0122,-35.2225,79.03,79,21,11.36,few clouds
374,Wawa,NG,9.9022,4.4192,78.28,25,61,6.53,broken clouds
375,Yambio,SS,4.5721,28.3955,71.89,35,96,0.43,overcast clouds
376,Nenjiang,CN,49.1833,125.2167,3.54,85,100,9.53,overcast clouds
377,Makakilo City,US,21.3469,-158.0858,79.68,66,1,16.11,clear sky
378,Taungdwingyi,MM,20.0167,95.55,65.52,81,0,3.38,clear sky
379,Baherden,TM,38.4362,57.4316,45.63,68,56,9.44,broken clouds
380,Flinders,AU,-34.5833,150.8552,68.18,70,13,4.65,few clouds
381,Maxixe,MZ,-23.8597,35.3472,77.72,96,12,6.91,few clouds
382,Awjilah,LY,29.1081,21.2869,54.46,76,2,8.55,clear sky
383,Buchanan,LR,5.8808,-10.0467,78.76,83,10,7.11,clear sky
384,Bay Roberts,CA,47.5999,-53.2648,51.55,92,100,11.01,light rain
385,Warmbad,NA,-28.45,18.7333,69.42,34,0,13.42,clear sky
386,La Ligua,CL,-32.4524,-71.2311,67.78,61,0,7.83,clear sky
387,Lantana,US,26.5867,-80.052,79.09,80,1,4.61,clear sky
388,Verkhovazhye,RU,60.7472,42.0465,20.03,93,100,7.0,overcast clouds
389,Krasnyy Yar,RU,46.5331,48.3456,24.73,61,1,10.74,clear sky
390,Jinchang,CN,38.4953,102.1739,22.66,33,0,3.09,clear sky
391,Emilio Carranza,MX,19.9711,-96.6114,69.98,67,17,11.05,few clouds
392,Santa Fe,AR,-31.6333,-60.7,79.02,71,75,4.0,light rain
393,Pilar,BR,-9.5972,-35.9567,78.73,79,57,7.96,broken clouds
394,Kankaanpaa,FI,61.8,22.4167,28.8,99,100,4.07,overcast clouds
395,Pokotylivka,UA,49.9153,36.1772,28.54,86,75,15.66,broken clouds
396,Toppenish,US,46.3774,-120.3087,46.81,52,51,8.01,broken clouds
397,Cartagena,CO,10.3997,-75.5144,80.22,78,75,9.22,broken clouds
398,Bud,US,39.447,-86.1758,44.04,53,5,7.43,clear sky
399,Kondinskoye,RU,59.6481,67.41,14.13,90,97,9.37,overcast clouds
400,Sumenep,ID,-7.0167,113.8667,80.8,81,93,4.76,overcast clouds
401,Frankfort,ZA,-27.2667,28.4833,62.13,83,100,7.16,light rain
402,Serra,BR,-20.1286,-40.3078,80.06,78,0,16.11,clear sky
403,Gumdag,TM,39.2061,54.5906,42.71,72,5,1.66,clear sky
404,Reconquista,AR,-29.15,-59.65,86.16,41,14,5.39,few clouds
405,Andros Town,BS,24.7,-77.7667,78.76,75,2,14.36,clear sky
406,Hami,CN,42.8,93.45,22.19,44,30,4.18,scattered clouds
407,Bosobolo,CD,4.1833,19.9,77.68,45,92,0.83,overcast clouds
408,Perama,GR,37.9757,23.5828,53.67,78,52,6.31,broken clouds
409,Tessalit,ML,20.1986,1.0114,69.76,9,14,8.93,few clouds
410,Esperance,AU,-33.8667,121.9,55.24,53,68,4.38,broken clouds
411,Port Augusta,AU,-32.5,137.7667,66.34,61,37,18.72,scattered clouds
412,Maceio,BR,-9.6658,-35.7353,80.04,83,20,6.91,few clouds
413,Namatanai,PG,-3.6667,152.4333,84.76,68,94,4.68,overcast clouds
414,Orlik,RU,52.5178,99.825,-4.22,92,80,3.22,broken clouds
415,Olafsvik,IS,64.8945,-23.7142,41.88,89,99,19.73,overcast clouds
416,Thinadhoo,MV,0.5333,72.9333,80.6,75,93,8.14,overcast clouds
417,Sinnamary,GF,5.3833,-52.95,77.09,90,100,10.58,light rain
418,Fuxin,CN,42.0156,121.6589,19.31,44,0,5.12,clear sky
419,Toccoa,US,34.5773,-83.3324,51.44,60,1,0.0,clear sky
420,Pevek,RU,69.7008,170.3133,-32.93,96,13,1.54,few clouds
421,Trujillo,PE,-8.116,-79.03,66.16,82,64,8.05,broken clouds
422,Sorland,NO,67.667,12.6934,36.72,97,95,17.38,overcast clouds
423,Comodoro Rivadavia,AR,-45.8667,-67.5,57.06,82,75,4.61,light rain
424,Roebourne,AU,-20.7833,117.1333,89.94,22,0,10.56,light rain
425,Maltahohe,NA,-24.8333,16.9833,68.72,18,0,9.73,clear sky
426,Acapulco,MX,16.8634,-99.8901,82.76,68,25,4.94,scattered clouds
427,Machico,PT,32.7,-16.7667,64.71,92,75,6.91,light intensity drizzle
428,Sur,OM,22.5667,59.5289,70.36,63,6,6.11,clear sky
429,Ngunguru,NZ,-35.6167,174.5,72.16,92,100,10.8,overcast clouds
430,Scottsbluff,US,41.8666,-103.6672,37.83,69,45,6.76,scattered clouds
431,Samagaltay,RU,50.6022,95.0047,0.39,87,98,0.98,overcast clouds
432,Cernat,RO,45.95,26.0333,41.11,92,65,2.66,broken clouds
433,Brigantine,US,39.4101,-74.3646,45.01,59,0,11.05,clear sky
434,Rio Verde De Mato Grosso,BR,-18.9181,-54.8442,75.61,91,97,2.75,light rain
435,Kagadi,UG,0.9606,30.7967,64.4,60,100,2.17,overcast clouds
436,Pacific Grove,US,36.6177,-121.9166,57.07,72,100,1.99,overcast clouds
437,Wamba,NG,8.9333,8.6,75.79,21,95,4.9,overcast clouds
438,Coffs Harbour,AU,-30.3,153.1333,71.87,73,40,13.8,scattered clouds
439,Likasi,CD,-10.9814,26.7333,67.46,64,97,3.09,overcast clouds
440,Ahipara,NZ,-35.1667,173.1667,70.56,92,100,7.27,overcast clouds
441,Tromso,NO,69.6496,18.957,33.82,80,75,1.99,light rain
442,Mnogovershinnyy,RU,53.9353,139.9242,19.35,94,100,12.5,snow
443,Goya,AR,-29.14,-59.2626,85.05,43,15,2.44,few clouds
444,Bilibino,RU,68.0546,166.4372,-34.91,96,15,4.88,few clouds
445,Olesno,PL,50.877,18.4209,26.67,94,23,4.68,few clouds
446,Skibbereen,IE,51.55,-9.2667,44.4,81,89,7.72,overcast clouds
447,Nouadhibou,MR,20.931,-17.0347,66.18,63,0,16.11,clear sky
448,Xichang,CN,27.8964,102.2634,42.46,90,69,0.78,broken clouds
449,Namibe,AO,-15.1961,12.1522,71.4,77,53,5.46,broken clouds
450,Souillac,MU,-20.5167,57.5167,75.58,88,75,17.27,light intensity shower rain
451,Lorengau,PG,-2.0226,147.2712,82.96,82,100,15.28,overcast clouds
452,Zhoucun,CN,36.8167,117.8167,28.94,36,0,3.24,clear sky
453,Yar-Sale,RU,66.8333,70.8333,-16.98,100,72,3.65,broken clouds
454,Cuamba,MZ,-14.8031,36.5372,77.16,54,44,7.38,scattered clouds
455,Kununurra,AU,-15.7667,128.7333,89.58,58,10,5.75,clear sky
456,Merrill,US,45.1805,-89.6835,35.58,67,1,3.44,clear sky
457,Henties Bay,NA,-22.116,14.2845,60.85,88,0,6.49,clear sky
458,Polis,CY,35.0367,32.4264,58.82,64,100,2.15,overcast clouds
459,Marawi,PH,7.9986,124.2928,66.65,90,62,1.68,broken clouds
460,Taseyevo,RU,57.2169,94.8978,5.02,93,100,6.69,overcast clouds
461,Chuzhou,CN,32.3219,118.2978,34.7,58,0,5.21,clear sky
462,Erzin,TR,36.9559,36.2,57.72,53,100,7.54,overcast clouds
463,Oga,IT,46.4631,10.347,24.69,98,85,5.41,overcast clouds
464,Kavieng,PG,-2.5744,150.7967,84.61,72,100,7.16,light rain
465,Rawson,AR,-43.3002,-65.1023,58.75,66,91,17.87,light rain
466,Vredendal,ZA,-31.6683,18.5012,64.56,82,100,12.35,overcast clouds
467,Grand Gaube,MU,-20.0064,57.6608,75.6,75,88,3.0,overcast clouds
468,Bandarbeyla,SO,9.4942,50.8122,76.41,77,3,21.72,clear sky
469,Pringsewu,ID,-5.3582,104.9744,72.9,96,71,1.88,broken clouds
470,Homer,US,59.6425,-151.5483,7.03,72,13,16.13,few clouds
471,Champerico,GT,14.3,-91.9167,88.34,70,1,6.8,clear sky
472,Knysna,ZA,-34.0363,23.0471,64.78,88,86,1.63,overcast clouds
473,Veliki Crljeni,RS,44.4675,20.2844,33.08,99,100,12.28,snow
474,Neiafu,TO,-18.65,-173.9833,81.28,83,75,2.3,light rain
475,Krasnoselkup,RU,65.7,82.4667,-16.78,92,100,5.95,overcast clouds
476,Stabat,ID,3.761,98.4513,75.4,97,75,3.18,broken clouds
477,Atamanovka,RU,51.93,113.63,16.23,83,100,6.08,overcast clouds
478,Vao,NC,-22.6667,167.4833,75.67,93,100,14.32,light rain
479,Hede,CN,33.7681,120.2517,32.81,66,0,6.35,clear sky
480,Manoel Urbano,BR,-8.8389,-69.2597,76.59,94,99,2.98,overcast clouds
481,Yumen,CN,40.2833,97.2,19.0,38,0,16.96,clear sky
482,Haines Junction,CA,60.7522,-137.5108,-5.85,54,99,8.05,overcast clouds
483,Hasaki,JP,35.7333,140.8333,50.22,52,59,21.27,broken clouds
484,Bonavista,CA,48.6499,-53.1147,44.11,73,100,30.42,overcast clouds
485,Flin Flon,CA,54.7682,-101.865,10.24,85,90,3.44,overcast clouds
486,Nouakchott,MR,18.0858,-15.9785,71.53,29,80,10.31,broken clouds
487,Fortuna,US,40.5982,-124.1573,53.65,78,75,5.99,broken clouds
488,Beloha,MG,-25.1667,45.05,72.0,84,55,6.89,broken clouds
489,Ponta Do Sol,PT,32.6667,-17.1,64.0,78,46,1.7,scattered clouds
490,Turukhansk,RU,65.8167,87.9833,-11.56,92,100,4.07,overcast clouds
491,Hit,IQ,33.6416,42.8251,57.02,40,91,8.14,overcast clouds
492,Morondava,MG,-20.2833,44.2833,79.48,73,91,4.88,overcast clouds
493,Harlingen,US,26.1906,-97.6961,68.09,56,30,10.07,scattered clouds
494,Ajdabiya,LY,30.7554,20.2263,59.07,62,1,7.78,clear sky
495,Port Moresby,PG,-9.4431,147.1797,78.22,89,75,5.75,broken clouds
496,Finote Selam,ET,10.7,37.2667,55.4,37,48,3.6,scattered clouds
497,Karratha,AU,-20.7377,116.8463,89.1,22,0,10.87,light rain
498,Nishihara,JP,26.1842,127.7558,67.28,73,75,21.85,broken clouds
499,Ibra,OM,22.6906,58.5334,59.88,64,7,2.89,clear sky
500,Wadi Musa,JO,30.3222,35.4793,59.09,26,100,5.06,overcast clouds
501,Iskateley,RU,67.6803,53.1512,16.11,95,100,9.33,overcast clouds
502,Port Shepstone,ZA,-30.7414,30.455,73.69,90,100,4.92,overcast clouds
503,Iqaluit,CA,63.7506,-68.5145,6.53,65,75,10.0,broken clouds
504,Maloy,NO,61.9353,5.1136,44.73,85,98,8.99,overcast clouds
505,Aquiraz,BR,-3.9014,-38.3911,86.22,65,63,12.64,broken clouds
506,Medina,SA,24.4686,39.6142,68.43,22,0,9.22,clear sky
507,Varhaug,NO,58.6147,5.6457,43.9,89,100,14.61,overcast clouds
508,Saint Anthony,US,45.0205,-93.218,35.53,68,75,1.01,light snow
509,Ruteng,ID,-8.6136,120.4721,66.85,85,99,0.25,overcast clouds
510,Solvychegodsk,RU,61.3305,46.9156,8.22,92,50,6.29,scattered clouds
511,Denpasar,ID,-8.65,115.2167,78.46,94,40,3.44,scattered clouds
512,Lichuan,CN,30.3,108.85,34.14,96,74,2.98,broken clouds
513,Katangli,RU,51.7102,143.2326,26.33,95,99,18.75,light snow
514,Byron Bay,AU,-28.65,153.6167,75.18,77,95,10.49,overcast clouds
515,Manta,EC,-0.95,-80.7333,74.98,88,90,2.3,moderate rain
516,Sao Joao Da Barra,BR,-21.6403,-41.0511,76.21,90,90,21.83,overcast clouds
517,San Rafael,AR,-34.6177,-68.3301,71.91,32,0,11.05,clear sky
518,Amapa,BR,1.0,-52.0,73.49,97,72,3.02,broken clouds
519,Aluksne,LV,57.4167,27.05,31.3,98,100,5.99,light snow
520,Pachora,IN,20.6667,75.35,66.92,54,8,5.08,clear sky
521,Tura,IN,25.5198,90.2201,55.92,77,0,3.71,clear sky
522,Otavi,NA,-19.65,17.3333,69.58,68,85,1.92,overcast clouds
523,Wilkie,CA,52.4168,-108.7014,21.58,98,77,4.03,broken clouds
524,Hollister,US,36.8525,-121.4016,56.66,64,75,9.22,broken clouds
525,Arrecife,ES,28.963,-13.5477,64.47,67,0,5.75,clear sky
526,Montlucon,FR,46.3333,2.6,43.11,94,96,3.2,overcast clouds
527,Zhangjiakou,CN,40.81,114.8794,17.78,32,0,0.89,clear sky
528,Chavakkad,IN,10.5333,76.05,74.57,77,33,13.42,scattered clouds
529,Umm Lajj,SA,25.0213,37.2685,76.19,41,100,3.38,overcast clouds
530,Asosa,ET,10.0667,34.5333,64.87,25,81,4.09,broken clouds
531,Tandil,AR,-37.3217,-59.1332,66.74,71,83,6.06,broken clouds
532,Launceston,AU,-41.45,147.1667,65.61,54,75,5.99,broken clouds
533,Zhanaozen,KZ,43.3,52.8,23.13,67,0,10.02,clear sky
534,Leme,BR,-22.1856,-47.3903,81.36,81,75,6.24,broken clouds
535,Tautira,PF,-17.7333,-149.15,86.02,79,87,10.67,light rain
536,Baijiantan,CN,45.6333,85.1833,13.64,89,87,0.31,overcast clouds
537,Bereda,ES,43.2686,-7.5406,45.57,100,74,1.88,broken clouds
538,Farmington,US,36.7281,-108.2187,42.1,29,45,5.82,scattered clouds
539,Khingansk,RU,49.1167,131.1833,-13.68,99,100,4.56,overcast clouds
540,Pulgaon,IN,20.7333,78.3333,61.29,59,50,5.14,scattered clouds
541,Kulhudhuffushi,MV,6.6221,73.07,81.07,76,95,6.44,overcast clouds
542,Kangaatsiaq,GL,68.3065,-53.4641,19.98,92,100,5.84,overcast clouds
543,Dingle,PH,10.9995,122.6711,76.8,92,88,8.25,overcast clouds
544,Touros,BR,-5.1989,-35.4608,83.3,76,8,15.59,clear sky
545,Cooma,AU,-36.2333,149.1333,56.97,100,75,8.05,broken clouds
546,Covington,US,39.0837,-84.5086,45.25,54,4,5.79,clear sky
547,Odweyne,SO,9.4092,45.064,66.24,47,4,17.49,clear sky
548,Port Macquarie,AU,-31.4333,152.9167,74.89,60,1,10.16,clear sky
549,Tumbagaan,PH,5.3656,120.3139,80.49,81,33,3.38,scattered clouds
550,Altay,CN,47.8667,88.1167,10.87,64,86,5.37,overcast clouds
551,Kandrian,PG,-6.2167,149.55,81.54,82,100,4.41,overcast clouds
552,Yuzawa,JP,39.1667,140.5,30.02,86,100,21.18,light snow
553,Sarangani,PH,5.4033,125.4636,83.07,74,98,8.41,overcast clouds
554,Sawtell,AU,-30.3833,153.1,71.92,72,40,13.8,scattered clouds
555,Crotone,IT,39.0851,17.1178,40.93,62,69,19.86,broken clouds
556,Fernie,CA,49.5,-115.0687,33.89,86,42,4.88,scattered clouds
557,Padang,ID,-0.9492,100.3543,77.05,93,100,1.66,overcast clouds
558,Ferkessedougou,CI,9.6,-5.2,78.85,21,12,2.89,few clouds
559,Kijang,KR,35.2442,129.2139,29.93,30,0,5.01,clear sky
560,Shirokiy,RU,49.758,129.523,-20.85,97,11,4.27,few clouds
561,Lohja,FI,60.2486,24.0653,33.51,100,100,2.46,overcast clouds
562,Reftinskiy,RU,57.0901,61.6769,10.8,64,57,11.39,broken clouds
563,Salisbury,GB,51.0693,-1.7957,54.57,80,100,16.02,overcast clouds
564,Nemours,FR,48.2751,2.6908,49.95,90,85,5.88,overcast clouds
565,Zakamensk,RU,50.3741,103.2863,-0.35,92,50,3.69,scattered clouds
566,Road Town,VG,18.4167,-64.6167,79.0,89,40,9.22,scattered clouds
567,Portland,US,45.5234,-122.6762,46.45,86,75,4.0,broken clouds
568,Tanete,ID,-3.9443,119.7848,78.66,88,97,2.73,overcast clouds
569,Balaipungut,ID,1.05,101.2833,73.81,99,100,2.84,overcast clouds
570,Sovetskiy,RU,61.3614,63.5842,12.24,88,89,5.88,overcast clouds
571,Ocos,GT,14.5094,-92.1933,88.3,71,0,5.66,clear sky
572,Pacasmayo,PE,-7.4006,-79.5714,69.64,77,61,12.06,broken clouds
573,Te Anau,NZ,-45.4167,167.7167,63.48,58,60,3.02,broken clouds
574,Zaraza,VE,9.3503,-65.3245,75.81,86,82,7.31,broken clouds
575,Baykit,RU,61.67,96.37,-25.19,99,40,2.21,scattered clouds
576,Lowestoft,GB,52.4752,1.7516,53.94,93,100,14.67,overcast clouds
577,Lovozero,RU,68.005,35.0117,19.83,97,100,3.13,overcast clouds
578,Sept-Iles,CA,50.2001,-66.3821,29.05,68,40,20.0,scattered clouds
579,Srednekolymsk,RU,67.45,153.6833,-39.23,97,98,2.35,overcast clouds
580,Kirakira,SB,-10.4544,161.9205,83.7,81,96,14.58,overcast clouds
581,Codrington,AU,-38.2667,141.9667,84.02,23,63,16.11,broken clouds
582,Unai,BR,-16.3575,-46.9061,73.08,92,100,2.26,overcast clouds
583,Tamiahua,MX,21.2667,-97.45,70.05,52,86,8.59,overcast clouds
584,Nago,JP,26.5881,127.9761,68.07,70,99,17.02,overcast clouds
585,Dalbandin,PK,28.8947,64.4101,48.7,28,0,4.88,clear sky
586,Birin,NP,26.8865,88.0718,45.18,72,1,4.65,clear sky
587,Lazarev,RU,52.225,141.5131,24.03,94,97,21.23,light snow
588,Barra,BR,-11.0894,-43.1417,78.53,72,97,5.46,overcast clouds
589,Eyl,SO,7.9803,49.8164,75.02,77,19,19.48,few clouds
590,Magole,TZ,-6.3667,37.3667,69.84,95,47,1.57,light rain
591,Torres,BR,-29.3353,-49.7269,74.82,91,15,3.69,few clouds
592,Xining,CN,36.6167,101.7667,21.27,30,0,2.53,clear sky
593,Merauke,ID,-8.4667,140.3333,80.29,83,99,13.67,overcast clouds
594,Myaundzha,RU,63.0494,147.1858,-17.57,92,100,4.5,overcast clouds
595,Biloela,AU,-24.4167,150.5,80.17,53,0,9.1,clear sky
596,Mount Isa,AU,-20.7333,139.5,89.37,15,8,5.75,clear sky
597,Tapejara,BR,-28.0681,-52.0139,70.56,65,22,3.42,few clouds
598,Masingbi,SL,8.7833,-11.95,75.79,83,34,2.06,scattered clouds
599,Sibolga,ID,1.7427,98.7792,75.42,91,100,1.19,overcast clouds
600,Florida,US,28.7505,-82.5001,75.94,89,1,0.0,clear sky
601,Privolzhye,RU,52.8649,48.6044,17.83,70,8,4.92,clear sky
602,Luena,AO,-11.7833,19.9167,65.44,90,99,3.67,overcast clouds
603,Coari,BR,-4.085,-63.1414,75.25,96,100,2.06,overcast clouds
604,Santa Isabel Do Rio Negro,BR,-0.4139,-65.0192,77.94,86,71,2.57,broken clouds
605,La Ronge,CA,55.1001,-105.2842,10.65,92,90,1.14,overcast clouds
606,Jalu,LY,29.0331,21.5482,54.43,74,2,8.79,clear sky
607,Colares,PT,38.7992,-9.4469,61.32,69,3,1.01,clear sky
608,Luganville,VU,-15.5333,167.1667,81.82,86,100,13.96,overcast clouds
609,Le Port,RE,-20.9373,55.2919,77.0,79,31,5.1,scattered clouds
610,Uvalde,US,29.3669,-99.767,64.13,18,1,8.05,clear sky
611,Sokoto,NG,13.0609,5.239,74.21,16,45,10.04,scattered clouds
612,Sergeyevka,KZ,53.88,67.4158,5.2,90,18,8.05,few clouds
613,Opuwo,NA,-18.0607,13.84,73.13,63,37,11.05,light rain
614,Faya,SA,18.3851,42.4509,48.13,44,6,3.53,clear sky
615,Muroto,JP,33.2833,134.15,52.83,59,12,11.5,few clouds
616,Uige,AO,-7.6087,15.0613,66.96,98,100,0.56,light rain
617,Sao Felix Do Xingu,BR,-6.6447,-51.995,73.96,98,100,0.2,overcast clouds
618,Mombetsu,JP,44.3525,143.3525,31.86,69,51,25.1,broken clouds
619,Laguna,US,38.421,-121.4238,54.41,88,90,3.0,haze
620,Houston,US,29.7633,-95.3633,62.1,47,1,3.0,clear sky
621,Aizawl,IN,23.7333,92.7167,44.6,76,0,2.71,clear sky
622,Komsomolskiy,UZ,40.4272,71.7189,35.02,37,43,1.57,scattered clouds
623,Banda Aceh,ID,5.5577,95.3222,77.07,86,17,12.39,few clouds
624,Lichinga,MZ,-13.3128,35.2406,65.05,61,3,8.48,clear sky
625,Kikwit,CD,-5.041,18.8162,70.11,97,100,0.47,overcast clouds
626,Itacare,BR,-14.2775,-38.9967,76.96,84,97,6.82,overcast clouds
627,Buin,CL,-33.7333,-70.75,70.88,37,0,11.63,clear sky
628,The Pas,CA,53.8251,-101.2541,13.84,97,100,3.76,overcast clouds
629,Da Nang,VN,16.0678,108.2208,73.38,78,75,5.75,broken clouds
630,Mumbwa,ZM,-14.9783,27.0619,76.51,33,57,9.66,broken clouds
631,Carutapera,BR,-1.195,-46.02,79.41,83,25,7.92,scattered clouds
632,Lethem,GY,3.3803,-59.7968,80.49,72,98,10.16,overcast clouds
633,Macau,MO,22.2006,113.5461,65.07,68,20,21.85,few clouds
634,Caibarien,CU,22.5206,-79.4669,77.56,79,7,12.82,clear sky
635,Pozo Colorado,PY,-23.4923,-58.7972,83.88,62,93,7.56,overcast clouds
636,Kawai,JP,34.2333,135.85,42.15,89,97,7.52,overcast clouds
637,Okha,RU,53.5739,142.9478,24.58,90,100,19.51,overcast clouds
638,Gravelbourg,CA,49.8834,-106.5512,29.7,83,61,9.86,broken clouds
639,Watertown,US,42.3709,-71.1828,43.0,48,2,1.99,clear sky
640,San Juan,AR,-31.5375,-68.5364,77.14,40,7,19.37,clear sky
641,Zlobin,HR,45.2924,14.6541,38.5,46,0,13.8,clear sky
642,Tommot,RU,58.9564,126.2925,-32.17,98,76,1.39,broken clouds
643,Porto Walter,BR,-8.2686,-72.7439,80.08,80,67,4.68,broken clouds
644,Kuytun,RU,54.3419,101.5036,14.95,83,100,10.27,overcast clouds
645,De Panne,BE,51.0792,2.5917,51.46,92,90,6.91,overcast clouds
646,Ariquemes,BR,-9.9133,-63.0408,75.49,97,100,3.47,overcast clouds
647,Severomorsk,RU,69.0689,33.4162,25.2,92,92,9.64,overcast clouds
648,Wates,ID,-8.1326,111.9541,77.68,86,82,5.17,broken clouds
649,Gadwal,IN,16.2333,77.8,70.02,78,99,3.65,overcast clouds
650,Ixtapa,MX,20.7,-105.2,79.23,84,7,5.01,clear sky
651,Biak,ID,-0.9131,122.8766,79.39,78,99,2.86,overcast clouds
652,Kaspiyskiy,RU,45.3929,47.3707,34.38,73,8,17.02,clear sky
653,Rokytne,UA,51.2796,27.214,38.39,99,100,5.82,overcast clouds
654,Kampene,CD,-3.6,26.6667,70.11,97,100,1.1,overcast clouds
655,Kisanga,TZ,-7.4362,37.7034,72.9,94,88,2.77,overcast clouds
656,Muros,ES,42.7762,-9.0603,56.84,96,68,6.26,broken clouds
657,Sola,VU,-13.8833,167.55,81.09,81,100,17.83,overcast clouds
658,Charleroi,BE,50.413,4.4465,49.06,97,75,9.22,broken clouds
659,Ayorou,NE,14.7308,0.9174,76.03,13,34,8.37,scattered clouds
660,Kutum,SD,14.2,24.6667,65.41,33,47,5.97,scattered clouds
661,Abbeville,FR,50.1,1.8333,53.56,92,66,7.78,broken clouds
662,Maniitsoq,GL,65.4167,-52.9,19.63,65,7,5.08,clear sky
663,Krasnyy Kurgan,RU,43.9422,42.6108,25.68,54,57,6.51,broken clouds
664,Sri Aman,MY,1.2376,111.4621,73.42,99,100,1.39,overcast clouds
665,Ipojuca,BR,-8.3989,-35.0639,78.82,80,16,8.61,few clouds
666,Paracuru,BR,-3.41,-39.0306,82.42,77,68,12.55,broken clouds
667,Qaqortoq,GL,60.7167,-46.0333,19.9,85,8,4.94,clear sky
668,Kiruna,SE,67.8557,20.2251,5.92,97,99,2.66,overcast clouds
669,Rapid Valley,US,44.0625,-103.1463,47.25,48,1,8.05,clear sky
670,Ketchikan,US,55.3422,-131.6461,29.86,81,96,5.55,overcast clouds
671,Ushibuka,JP,32.1906,130.0228,51.28,64,81,15.05,broken clouds
672,Nicoya,CR,10.1483,-85.452,79.72,71,28,6.8,scattered clouds
673,Mantua,IT,45.1667,10.7833,43.83,88,97,1.01,overcast clouds
674,Anadyr,RU,64.75,177.4833,-28.7,75,75,11.18,fog
675,Chirongui,YT,-12.9319,45.1483,80.53,72,76,8.5,broken clouds
676,Kortkeros,RU,61.8106,51.5806,1.4,96,89,4.83,overcast clouds
677,Lakes Entrance,AU,-37.8811,147.981,67.15,65,3,8.1,clear sky
678,Geraldton,AU,-28.7667,114.6,61.21,72,58,6.91,broken clouds
679,Leningradskiy,RU,69.3833,178.4167,-31.25,91,3,4.41,clear sky
680,Mutoko,ZW,-17.397,32.2268,69.55,47,26,8.75,scattered clouds
681,High Level,CA,58.5169,-117.136,-9.26,96,97,4.63,overcast clouds
682,Mitu,CO,1.1983,-70.1733,76.59,87,85,2.55,overcast clouds
683,Hualmay,PE,-11.0964,-77.6139,69.69,80,70,9.62,broken clouds
684,Garden City,US,42.3256,-83.331,44.44,61,2,5.01,clear sky
685,Zemetchino,RU,53.4973,42.6163,21.81,71,30,10.63,scattered clouds
686,Aiken,US,33.5835,-81.5998,52.45,58,1,0.0,clear sky
687,Pachino,IT,36.7186,15.0907,42.84,71,55,6.87,broken clouds
688,San Jose,US,37.3394,-121.895,56.1,77,90,4.0,overcast clouds
689,Renqiu,CN,38.6989,116.0936,25.32,45,0,6.31,clear sky
690,Isangel,VU,-19.55,169.2667,83.21,77,100,10.02,overcast clouds
691,Canora,CA,51.6333,-102.4343,20.35,92,81,6.11,broken clouds
692,Kuala Terengganu,MY,5.3302,103.1408,75.85,87,60,4.56,broken clouds
693,Micheweni,TZ,-4.9667,39.8333,77.94,84,47,6.82,moderate rain
694,Kamenz,DE,51.268,14.0937,40.08,95,100,7.25,overcast clouds
695,Qasigiannguit,GL,68.8193,-51.1922,19.65,93,92,6.31,overcast clouds
696,Kashi,CN,39.4547,75.9797,20.1,67,10,1.7,clear sky
697,Teguise,ES,29.0605,-13.564,57.42,67,0,5.75,clear sky
698,Nador,MA,35.174,-2.9287,57.45,88,0,1.14,clear sky
699,Liverpool,GB,53.4106,-2.9779,54.28,82,20,5.99,few clouds
700,Bacolod,PH,10.6667,122.95,78.75,85,76,7.45,broken clouds
701,Baruun-Urt,MN,46.6806,113.2792,13.37,61,3,20.85,clear sky
702,Geri,CY,35.1,33.4167,63.32,82,0,0.0,clear sky
703,Meulaboh,ID,4.1363,96.1285,75.45,90,88,1.63,overcast clouds
704,Rio Gallegos,AR,-51.6226,-69.2181,51.44,34,51,32.21,broken clouds
705,Moscow,RU,55.7522,37.6156,25.38,94,100,7.16,overcast clouds
706,Skjervoy,NO,70.0311,20.9714,34.36,98,100,9.37,light rain
707,Krugersdorp,ZA,-26.0858,27.7752,65.75,83,100,6.35,overcast clouds
